[
  {
    "id": 1,
    "name": "Joe Lewis",
    "clearance": "Top Secret",
    "has_skill_identifier": true,
    "arrived_on_station": "2023-07-10",
    "is_civilian": false,
    "rank": "Major",
    "email": "person1@example.com",
    "latitude": "40.7128",
    "longitude": "74.0060",
    "branch_id": 1,
    "unit_id": 1,
    "installation_id": 1
  },
  {
    "id": 2,
    "name": "Steve Rogers",
    "clearance": "Secret",
    "has_skill_identifier": true,
    "arrived_on_station": "2023-06-01",
    "is_civilian": false,
    "rank": "Lieutenant",
    "email": "person2@example.com",
    "latitude": "34.0522",
    "longitude": "118.2437",
    "branch_id": 2,
    "unit_id": 2,
    "installation_id": 2
  },
  {
    "id": 3,
    "name": "Kate Bush",
    "clearance": "Confidential",
    "has_skill_identifier": true,
    "arrived_on_station": "2023-05-15",
    "is_civilian": false,
    "rank": "Sergeant",
    "email": "person3@example.com",
    "latitude": "41.8781",
    "longitude": "87.6298",
    "branch_id": 3,
    "unit_id": 3,
    "installation_id": 3
  },
  {
    "id": 4,
    "name": "Bruce Lee",
    "clearance": "Top Secret",
    "has_skill_identifier": false,
    "arrived_on_station": "2023-04-30",
    "is_civilian": false,
    "rank": "Captain",
    "email": "person4@example.com",
    "latitude": "29.7604",
    "longitude": "95.3698",
    "branch_id": 4,
    "unit_id": 4,
    "installation_id": 4
  },
  {
    "id": 5,
    "name": "Bill Paxton",
    "clearance": "Secret",
    "has_skill_identifier": true,
    "arrived_on_station": "2023-03-20",
    "is_civilian": false,
    "rank": "Colonel",
    "email": "person5@example.com",
    "latitude": "39.7392",
    "longitude": "104.9903",
    "branch_id": 5,
    "unit_id": 5,
    "installation_id": 5
  }
]